{"type": "FeatureCollection", "features": [{"type": "Feature", "geometry": {"type": "Point", "coordinates": [-71.585856, 41.168721]}, "properties": {"year": "2012", "numFound": 25, "floatType": "Regular", "locationName": "enchanted forest"}}, {"type": "Feature", "geometry": {"type": "Point", "coordinates": [-71.556688, 41.216374]}, "properties": {"year": "2012", "numFound": 24, "floatType": "Regular", "locationName": "clay head trail"}}, {"type": "Feature", "geometry": {"type": "Point", "coordinates": [-71.575811, 41.22746]}, "properties": {"year": "2012", "numFound": 8, "floatType": "Regular", "locationName": "north light"}}, {"type": "Feature", "geometry": {"type": "Point", "coordinates": [-71.561259, 41.201162]}, "properties": {"year": "2012", "numFound": 8, "floatType": "Regular", "locationName": "mansion beach"}}, {"type": "Feature", "geometry": {"type": "Point", "coordinates": [-71.552837, 41.152075]}, "properties": {"year": "2012", "numFound": 6, "floatType": "Regular", "locationName": "mohegan bluffs"}}, {"type": "Feature", "geometry": {"type": "Point", "coordinates": [-71.607821, 41.173237]}, "properties": {"year": "2012", "numFound": 5, "floatType": "Regular", "locationName": "dorry's cove"}}, {"type": "Feature", "geometry": {"type": "Point", "coordinates": [-71.601656, 41.183112]}, "properties": {"year": "2012", "numFound": 5, "floatType": "Regular", "locationName": "grace's cove"}}, {"type": "Feature", "geometry": {"type": "Point", "coordinates": [-71.580125, 41.203721]}, "properties": {"year": "2012", "numFound": 4, "floatType": "Regular", "locationName": "west beach"}}, {"type": "Feature", "geometry": {"type": "Point", "coordinates": [-71.591921, 41.16919]}, "properties": {"year": "2012", "numFound": 3, "floatType": "Regular", "locationName": "turnip farm"}}, {"type": "Feature", "geometry": {"type": "Point", "coordinates": [-71.558675, 41.210276]}, "properties": {"year": "2012", "numFound": 3, "floatType": "Regular", "locationName": "the maze"}}, {"type": "Feature", "geometry": {"type": "Point", "coordinates": [-71.566737, 41.187421]}, "properties": {"year": "2012", "numFound": 3, "floatType": "Regular", "locationName": "crescent beach"}}, {"type": "Feature", "geometry": {"type": "Point", "coordinates": [-71.585856, 41.168721]}, "properties": {"year": "2012", "numFound": 2, "floatType": "Fancy", "locationName": "enchanted forest"}}, {"type": "Feature", "geometry": {"type": "Point", "coordinates": [-71.556688, 41.216374]}, "properties": {"year": "2012", "numFound": 2, "floatType": "Fancy", "locationName": "clay head trail"}}, {"type": "Feature", "geometry": {"type": "Point", "coordinates": [-71.572128, 41.226039]}, "properties": {"year": "2012", "numFound": 2, "floatType": "Regular", "locationName": "cow cove"}}, {"type": "Feature", "geometry": {"type": "Point", "coordinates": [-71.579542, 41.169007]}, "properties": {"year": "2012", "numFound": 2, "floatType": "Regular", "locationName": "airport"}}, {"type": "Feature", "geometry": {"type": "Point", "coordinates": [-71.580125, 41.203721]}, "properties": {"year": "2012", "numFound": 1, "floatType": "Fancy", "locationName": "west beach"}}, {"type": "Feature", "geometry": {"type": "Point", "coordinates": [-71.561259, 41.201162]}, "properties": {"year": "2012", "numFound": 1, "floatType": "Fancy", "locationName": "mansion beach"}}, {"type": "Feature", "geometry": {"type": "Point", "coordinates": [-71.570967, 41.16446]}, "properties": {"year": "2012", "numFound": 1, "floatType": "Regular", "locationName": "payne overlook"}}, {"type": "Feature", "geometry": {"type": "Point", "coordinates": [-71.588699, 41.195293]}, "properties": {"year": "2012", "numFound": 1, "floatType": "Regular", "locationName": "coast guard beach"}}, {"type": "Feature", "geometry": {"type": "Point", "coordinates": [-71.607821, 41.173237]}, "properties": {"year": "2012", "numFound": 1, "floatType": "Regular", "locationName": "dorry's cove beach"}}, {"type": "Feature", "geometry": {"type": "Point", "coordinates": [-71.589276, 41.170297]}, "properties": {"year": "2012", "numFound": 1, "floatType": "Regular", "locationName": "greenway"}}, {"type": "Feature", "geometry": {"type": "Point", "coordinates": [-71.575562, 41.201322]}, "properties": {"year": "2012", "numFound": 1, "floatType": "Regular", "locationName": "andy's way"}}, {"type": "Feature", "geometry": {"type": "Point", "coordinates": [-71.608702, 41.151667]}, "properties": {"year": "2012", "numFound": 1, "floatType": "Regular", "locationName": "lewis point"}}, {"type": "Feature", "geometry": {"type": "Point", "coordinates": [-71.566262, 41.19002]}, "properties": {"year": "2012", "numFound": 1, "floatType": "Regular", "locationName": "scotch beach"}}, {"type": "Feature", "geometry": {"type": "Point", "coordinates": [-71.612551, 41.160592]}, "properties": {"year": "2012", "numFound": 1, "floatType": "Regular", "locationName": "southwest point"}}]}