{"type": "FeatureCollection", "features": [{"type": "Feature", "geometry": {"type": "Point", "coordinates": [-71.587957, 41.157718]}, "properties": {"year": "2018", "numFound": 34, "floatType": "Regular", "locationName": "rodman's hollow"}}, {"type": "Feature", "geometry": {"type": "Point", "coordinates": [-71.589276, 41.170297]}, "properties": {"year": "2018", "numFound": 20, "floatType": "Regular", "locationName": "greenway"}}, {"type": "Feature", "geometry": {"type": "Point", "coordinates": [-71.578612, 41.160159]}, "properties": {"year": "2018", "numFound": 16, "floatType": "Regular", "locationName": "fresh pond"}}, {"type": "Feature", "geometry": {"type": "Point", "coordinates": [-71.585856, 41.168721]}, "properties": {"year": "2018", "numFound": 16, "floatType": "Regular", "locationName": "enchanted forest"}}, {"type": "Feature", "geometry": {"type": "Point", "coordinates": [-71.556688, 41.216374]}, "properties": {"year": "2018", "numFound": 15, "floatType": "Regular", "locationName": "clay head trail"}}, {"type": "Feature", "geometry": {"type": "Point", "coordinates": [-71.58663, 41.168815]}, "properties": {"year": "2018", "numFound": 12, "floatType": "Regular", "locationName": "nathan mott park"}}, {"type": "Feature", "geometry": {"type": "Point", "coordinates": [-71.570683, 41.214658]}, "properties": {"year": "2018", "numFound": 12, "floatType": "Regular", "locationName": "hodge family wildlife preserve"}}, {"type": "Feature", "geometry": {"type": "Point", "coordinates": [-71.552837, 41.152075]}, "properties": {"year": "2018", "numFound": 11, "floatType": "Regular", "locationName": "mohegan bluffs"}}, {"type": "Feature", "geometry": {"type": "Point", "coordinates": [-71.596513, 41.166368]}, "properties": {"year": "2018", "numFound": 8, "floatType": "Regular", "locationName": "dodge cemetery"}}, {"type": "Feature", "geometry": {"type": "Point", "coordinates": [-71.558675, 41.210276]}, "properties": {"year": "2018", "numFound": 7, "floatType": "Regular", "locationName": "the maze"}}, {"type": "Feature", "geometry": {"type": "Point", "coordinates": [-71.587957, 41.157718]}, "properties": {"year": "2018", "numFound": 7, "floatType": "Regular", "locationName": "marsh hawk hollow"}}, {"type": "Feature", "geometry": {"type": "Point", "coordinates": [-71.610801, 41.163608]}, "properties": {"year": "2018", "numFound": 7, "floatType": "Regular", "locationName": "cooneymus beach"}}, {"type": "Feature", "geometry": {"type": "Point", "coordinates": [-71.591921, 41.16919]}, "properties": {"year": "2018", "numFound": 6, "floatType": "Regular", "locationName": "turnip farm"}}, {"type": "Feature", "geometry": {"type": "Point", "coordinates": [-71.575811, 41.22746]}, "properties": {"year": "2018", "numFound": 6, "floatType": "Regular", "locationName": "north light"}}, {"type": "Feature", "geometry": {"type": "Point", "coordinates": [-71.588801, 41.173461]}, "properties": {"year": "2018", "numFound": 6, "floatType": "Regular", "locationName": "beacon hill"}}, {"type": "Feature", "geometry": {"type": "Point", "coordinates": [-71.587957, 41.157718]}, "properties": {"year": "2018", "numFound": 5, "floatType": "Regular", "locationName": "rodman hollow"}}, {"type": "Feature", "geometry": {"type": "Point", "coordinates": [-71.572955, 41.160829]}, "properties": {"year": "2018", "numFound": 5, "floatType": "Regular", "locationName": "fresh swamp"}}, {"type": "Feature", "geometry": {"type": "Point", "coordinates": [-71.583957, 41.178345]}, "properties": {"year": "2018", "numFound": 5, "floatType": "Regular", "locationName": "harrison trail"}}, {"type": "Feature", "geometry": {"type": "Point", "coordinates": [-71.579542, 41.169007]}, "properties": {"year": "2018", "numFound": 5, "floatType": "Regular", "locationName": "airport"}}, {"type": "Feature", "geometry": {"type": "Point", "coordinates": [-71.588881, 41.172052]}, "properties": {"year": "2018", "numFound": 5, "floatType": "Regular", "locationName": "middle earth"}}, {"type": "Feature", "geometry": {"type": "Point", "coordinates": [-71.602983, 41.165379]}, "properties": {"year": "2018", "numFound": 4, "floatType": "Regular", "locationName": "hyland trail"}}, {"type": "Feature", "geometry": {"type": "Point", "coordinates": [-71.570683, 41.214658]}, "properties": {"year": "2018", "numFound": 4, "floatType": "Regular", "locationName": "hodge preserve"}}, {"type": "Feature", "geometry": {"type": "Point", "coordinates": [-71.566105, 41.183046]}, "properties": {"year": "2018", "numFound": 4, "floatType": "Regular", "locationName": "fred benson town beach"}}, {"type": "Feature", "geometry": {"type": "Point", "coordinates": [-71.578864, 41.179665]}, "properties": {"year": "2018", "numFound": 4, "floatType": "Regular", "locationName": "cannon at legion park"}}, {"type": "Feature", "geometry": {"type": "Point", "coordinates": [-71.606952, 41.153068]}, "properties": {"year": "2018", "numFound": 4, "floatType": "Regular", "locationName": "elizabeth dickens trail"}}, {"type": "Feature", "geometry": {"type": "Point", "coordinates": [-71.580125, 41.203721]}, "properties": {"year": "2018", "numFound": 4, "floatType": "Regular", "locationName": "west beach"}}, {"type": "Feature", "geometry": {"type": "Point", "coordinates": [-71.564462, 41.212493]}, "properties": {"year": "2018", "numFound": 4, "floatType": "Regular", "locationName": "long lot trail"}}, {"type": "Feature", "geometry": {"type": "Point", "coordinates": [-71.593866, 41.168192]}, "properties": {"year": "2018", "numFound": 3, "floatType": "Regular", "locationName": "loffredo loop"}}, {"type": "Feature", "geometry": {"type": "Point", "coordinates": [-71.575562, 41.201322]}, "properties": {"year": "2018", "numFound": 3, "floatType": "Regular", "locationName": "andy's way"}}, {"type": "Feature", "geometry": {"type": "Point", "coordinates": [-71.549923, 41.162526]}, "properties": {"year": "2018", "numFound": 3, "floatType": "Regular", "locationName": "spring street"}}, {"type": "Feature", "geometry": {"type": "Point", "coordinates": [-71.601656, 41.183112]}, "properties": {"year": "2018", "numFound": 3, "floatType": "Regular", "locationName": "grace's cove"}}, {"type": "Feature", "geometry": {"type": "Point", "coordinates": [-71.56437, 41.217454]}, "properties": {"year": "2018", "numFound": 3, "floatType": "Regular", "locationName": "attwood overlook"}}, {"type": "Feature", "geometry": {"type": "Point", "coordinates": [-71.570683, 41.214658]}, "properties": {"year": "2018", "numFound": 3, "floatType": "Regular", "locationName": "hodge property"}}, {"type": "Feature", "geometry": {"type": "Point", "coordinates": [-71.578864, 41.179665]}, "properties": {"year": "2018", "numFound": 3, "floatType": "Regular", "locationName": "legion park"}}, {"type": "Feature", "geometry": {"type": "Point", "coordinates": [-71.569616, 41.180174]}, "properties": {"year": "2018", "numFound": 3, "floatType": "Regular", "locationName": "great salt pond"}}, {"type": "Feature", "geometry": {"type": "Point", "coordinates": [-71.561259, 41.201162]}, "properties": {"year": "2018", "numFound": 3, "floatType": "Regular", "locationName": "mansion beach"}}, {"type": "Feature", "geometry": {"type": "Point", "coordinates": [-71.58663, 41.168815]}, "properties": {"year": "2018", "numFound": 3, "floatType": "Regular", "locationName": "mott trail"}}, {"type": "Feature", "geometry": {"type": "Point", "coordinates": [-71.594658, 41.147349]}, "properties": {"year": "2018", "numFound": 3, "floatType": "Regular", "locationName": "black rock beach"}}, {"type": "Feature", "geometry": {"type": "Point", "coordinates": [-71.580125, 41.203721]}, "properties": {"year": "2018", "numFound": 2, "floatType": "Fancy", "locationName": "west beach"}}, {"type": "Feature", "geometry": {"type": "Point", "coordinates": [-71.578612, 41.160159]}, "properties": {"year": "2018", "numFound": 2, "floatType": "Fancy", "locationName": "fresh pond"}}, {"type": "Feature", "geometry": {"type": "Point", "coordinates": [-71.569326, 41.188882]}, "properties": {"year": "2018", "numFound": 2, "floatType": "Regular", "locationName": "mosquito beach"}}, {"type": "Feature", "geometry": {"type": "Point", "coordinates": [-71.570027, 41.159935]}, "properties": {"year": "2018", "numFound": 2, "floatType": "Regular", "locationName": "gaffney trail"}}, {"type": "Feature", "geometry": {"type": "Point", "coordinates": [-71.607821, 41.173237]}, "properties": {"year": "2018", "numFound": 2, "floatType": "Regular", "locationName": "dorry's cove"}}, {"type": "Feature", "geometry": {"type": "Point", "coordinates": [-71.566262, 41.19002]}, "properties": {"year": "2018", "numFound": 2, "floatType": "Regular", "locationName": "scotch beach"}}, {"type": "Feature", "geometry": {"type": "Point", "coordinates": [-71.555305, 41.171578]}, "properties": {"year": "2018", "numFound": 2, "floatType": "Regular", "locationName": "ocean view pavilion"}}, {"type": "Feature", "geometry": {"type": "Point", "coordinates": [-71.55766, 41.172856]}, "properties": {"year": "2018", "numFound": 2, "floatType": "Regular", "locationName": "block island chamber of commerce"}}, {"type": "Feature", "geometry": {"type": "Point", "coordinates": [-71.567472, 41.224669]}, "properties": {"year": "2018", "numFound": 2, "floatType": "Regular", "locationName": "settler's rock"}}, {"type": "Feature", "geometry": {"type": "Point", "coordinates": [-71.569326, 41.188882]}, "properties": {"year": "2018", "numFound": 2, "floatType": "Regular", "locationName": "dinhgy beach"}}, {"type": "Feature", "geometry": {"type": "Point", "coordinates": [-71.560226, 41.158001]}, "properties": {"year": "2018", "numFound": 2, "floatType": "Regular", "locationName": "pilot hill road"}}, {"type": "Feature", "geometry": {"type": "Point", "coordinates": [-71.588699, 41.195293]}, "properties": {"year": "2018", "numFound": 2, "floatType": "Regular", "locationName": "coast guard beach"}}, {"type": "Feature", "geometry": {"type": "Point", "coordinates": [-71.560353, 41.164294]}, "properties": {"year": "2018", "numFound": 2, "floatType": "Regular", "locationName": "block island public school"}}, {"type": "Feature", "geometry": {"type": "Point", "coordinates": [-71.602011, 41.159271]}, "properties": {"year": "2018", "numFound": 2, "floatType": "Regular", "locationName": "win dodge"}}, {"type": "Feature", "geometry": {"type": "Point", "coordinates": [-71.593139, 41.195006]}, "properties": {"year": "2018", "numFound": 2, "floatType": "Regular", "locationName": "charlestown beach"}}, {"type": "Feature", "geometry": {"type": "Point", "coordinates": [-71.551961, 41.153372]}, "properties": {"year": "2018", "numFound": 2, "floatType": "Regular", "locationName": "southeast light"}}, {"type": "Feature", "geometry": {"type": "Point", "coordinates": [-71.592582, 41.164759]}, "properties": {"year": "2018", "numFound": 2, "floatType": "Regular", "locationName": "old mill road"}}, {"type": "Feature", "geometry": {"type": "Point", "coordinates": [-71.561259, 41.201162]}, "properties": {"year": "2018", "numFound": 1, "floatType": "Fancy", "locationName": "mansion beach"}}, {"type": "Feature", "geometry": {"type": "Point", "coordinates": [-71.58663, 41.168815]}, "properties": {"year": "2018", "numFound": 1, "floatType": "Fancy", "locationName": "nathan mott park"}}, {"type": "Feature", "geometry": {"type": "Point", "coordinates": [-71.587957, 41.157718]}, "properties": {"year": "2018", "numFound": 1, "floatType": "Fancy", "locationName": "rodman's hollow"}}, {"type": "Feature", "geometry": {"type": "Point", "coordinates": [-71.602011, 41.159271]}, "properties": {"year": "2018", "numFound": 1, "floatType": "Fancy", "locationName": "win dodge"}}, {"type": "Feature", "geometry": {"type": "Point", "coordinates": [-71.583957, 41.178345]}, "properties": {"year": "2018", "numFound": 1, "floatType": "Fancy", "locationName": "harrison trail"}}, {"type": "Feature", "geometry": {"type": "Point", "coordinates": [-71.585856, 41.168721]}, "properties": {"year": "2018", "numFound": 1, "floatType": "Fancy", "locationName": "enchanted forest"}}, {"type": "Feature", "geometry": {"type": "Point", "coordinates": [-71.606952, 41.153068]}, "properties": {"year": "2018", "numFound": 1, "floatType": "Fancy", "locationName": "elizabeth dickens trail"}}, {"type": "Feature", "geometry": {"type": "Point", "coordinates": [-71.554313, 41.17284]}, "properties": {"year": "2018", "numFound": 1, "floatType": "Fancy", "locationName": "ballard's beach"}}, {"type": "Feature", "geometry": {"type": "Point", "coordinates": [-71.608702, 41.151667]}, "properties": {"year": "2018", "numFound": 1, "floatType": "Regular", "locationName": "dickens point"}}, {"type": "Feature", "geometry": {"type": "Point", "coordinates": [-71.570027, 41.159935]}, "properties": {"year": "2018", "numFound": 1, "floatType": "Regular", "locationName": "jim gaffney trail"}}, {"type": "Feature", "geometry": {"type": "Point", "coordinates": [-71.567324, 41.212791]}, "properties": {"year": "2018", "numFound": 1, "floatType": "Regular", "locationName": "corn neck road"}}, {"type": "Feature", "geometry": {"type": "Point", "coordinates": [-71.576319, 41.221549]}, "properties": {"year": "2018", "numFound": 1, "floatType": "Regular", "locationName": "logwood cove"}}, {"type": "Feature", "geometry": {"type": "Point", "coordinates": [-71.568207, 41.180342]}, "properties": {"year": "2018", "numFound": 1, "floatType": "Regular", "locationName": "dunn's bridge"}}, {"type": "Feature", "geometry": {"type": "Point", "coordinates": [-71.564797, 41.179318]}, "properties": {"year": "2018", "numFound": 1, "floatType": "Regular", "locationName": "baby beach"}}, {"type": "Feature", "geometry": {"type": "Point", "coordinates": [-71.555056, 41.15245]}, "properties": {"year": "2018", "numFound": 1, "floatType": "Regular", "locationName": "mohegan trail"}}, {"type": "Feature", "geometry": {"type": "Point", "coordinates": [-71.58076, 41.181072]}, "properties": {"year": "2018", "numFound": 1, "floatType": "Regular", "locationName": "ball o' brien park"}}, {"type": "Feature", "geometry": {"type": "Point", "coordinates": [-71.567883, 41.172852]}, "properties": {"year": "2018", "numFound": 1, "floatType": "Regular", "locationName": "meadow hill"}}, {"type": "Feature", "geometry": {"type": "Point", "coordinates": [-71.55766, 41.172856]}, "properties": {"year": "2018", "numFound": 1, "floatType": "Regular", "locationName": "visitor center"}}, {"type": "Feature", "geometry": {"type": "Point", "coordinates": [-71.566737, 41.187421]}, "properties": {"year": "2018", "numFound": 1, "floatType": "Regular", "locationName": "crescent beach"}}, {"type": "Feature", "geometry": {"type": "Point", "coordinates": [-71.560048, 41.174906]}, "properties": {"year": "2018", "numFound": 1, "floatType": "Regular", "locationName": "surf beach"}}, {"type": "Feature", "geometry": {"type": "Point", "coordinates": [-71.612551, 41.160592]}, "properties": {"year": "2018", "numFound": 1, "floatType": "Regular", "locationName": "southwest point"}}, {"type": "Feature", "geometry": {"type": "Point", "coordinates": [-71.565827, 41.2171]}, "properties": {"year": "2018", "numFound": 1, "floatType": "Regular", "locationName": "sacred labyrinth"}}, {"type": "Feature", "geometry": {"type": "Point", "coordinates": [-71.589276, 41.170297]}, "properties": {"year": "2018", "numFound": 1, "floatType": "Regular", "locationName": "greenway trail"}}, {"type": "Feature", "geometry": {"type": "Point", "coordinates": [-71.580415, 41.179489]}, "properties": {"year": "2018", "numFound": 1, "floatType": "Regular", "locationName": "island cemetery"}}, {"type": "Feature", "geometry": {"type": "Point", "coordinates": [-71.583957, 41.178345]}, "properties": {"year": "2018", "numFound": 1, "floatType": "Regular", "locationName": "harrison loop"}}, {"type": "Feature", "geometry": {"type": "Point", "coordinates": [-71.577908, 41.14805]}, "properties": {"year": "2018", "numFound": 1, "floatType": "Regular", "locationName": "barlow's point"}}, {"type": "Feature", "geometry": {"type": "Point", "coordinates": [-71.577626, 41.14959]}, "properties": {"year": "2018", "numFound": 1, "floatType": "Regular", "locationName": "snake hole road"}}, {"type": "Feature", "geometry": {"type": "Point", "coordinates": [-71.558906, 41.172051]}, "properties": {"year": "2018", "numFound": 1, "floatType": "Regular", "locationName": "post office"}}, {"type": "Feature", "geometry": {"type": "Point", "coordinates": [-71.569293, 41.164137]}, "properties": {"year": "2018", "numFound": 1, "floatType": "Regular", "locationName": "payne road greenway"}}, {"type": "Feature", "geometry": {"type": "Point", "coordinates": [-71.579394, 41.163545]}, "properties": {"year": "2018", "numFound": 1, "floatType": "Regular", "locationName": "'indian' cemetery"}}, {"type": "Feature", "geometry": {"type": "Point", "coordinates": [-71.572128, 41.226039]}, "properties": {"year": "2018", "numFound": 1, "floatType": "Regular", "locationName": "cow cove"}}, {"type": "Feature", "geometry": {"type": "Point", "coordinates": [-71.600145, 41.1653]}, "properties": {"year": "2018", "numFound": 1, "floatType": "Regular", "locationName": "martin trail"}}, {"type": "Feature", "geometry": {"type": "Point", "coordinates": [-71.5763, 41.1483]}, "properties": {"year": "2018", "numFound": 1, "floatType": "Regular", "locationName": "vaill beach"}}]}